City_ID,City,Lat,Lng,Max Temp,Humidity,Cloudiness,Wind Speed,Country,Date
0,xichang,27.8964,102.2634,288.54,77,1,1.01,CN,1681763787
1,yerbogachen,61.2767,108.0108,252.85,100,13,0.43,RU,1681763787
2,batagay,67.6333,134.6333,265.79,97,100,1.0,RU,1681763787
3,khatanga,71.9667,102.5,253.15,100,100,3.54,RU,1681763787
4,roma,43.2128,-75.4557,285.78,75,100,2.06,US,1681763788
5,geraldton,-28.7667,114.6,286.38,88,77,3.6,AU,1681763789
6,lagoa,39.05,-27.9833,287.13,64,2,5.86,PT,1681763790
7,mayo,38.8876,-76.5119,294.21,36,75,6.17,US,1681763790
8,souillac,-20.5167,57.5167,298.36,83,20,3.6,MU,1681763790
9,port lincoln,-34.7333,135.8667,288.92,90,2,5.08,AU,1681763791
10,jacareacanga,-6.2222,-57.7528,298.33,95,100,1.57,BR,1681763791
11,ushuaia,-54.8,-68.3,277.96,65,100,3.09,AR,1681763501
12,hithadhoo,-0.6,73.0833,301.6,66,17,1.12,MV,1681763791
13,sola,-13.8833,167.55,300.3,75,100,3.28,VU,1681763791
14,merke,42.8728,73.1786,275.65,80,100,2.5,KZ,1681763792
15,tiksi,71.6872,128.8694,256.64,100,100,2.07,RU,1681763792
16,garissa,-0.4536,39.6401,299.06,82,95,6.41,KE,1681763792
17,harper,4.375,-7.7169,300.38,81,91,1.44,LR,1681763793
18,yellowknife,62.456,-114.3525,281.44,36,40,8.75,CA,1681763793
19,taksimo,56.3444,114.8794,260.45,81,2,1.09,RU,1681763794
20,bonthe,7.5264,-12.505,300.86,81,59,3.39,SL,1681763794
21,rikitea,-23.1203,-134.9692,299.5,81,100,5.87,PF,1681763794
22,cabo san lucas,22.8909,-109.9124,303.49,34,0,5.14,MX,1681763588
23,hilo,19.7297,-155.09,300.53,73,75,3.09,US,1681763784
24,puerto ayora,-0.7393,-90.3518,303.13,88,97,3.58,EC,1681763795
25,huanren,41.2647,125.3667,280.87,82,100,0.98,CN,1681763795
26,saint-philippe,-21.3585,55.7679,297.92,81,100,3.93,RE,1681763795
27,phalaborwa,-23.943,31.1411,292.75,53,5,1.01,ZA,1681763796
28,gazanjyk,39.2446,55.5154,284.68,20,2,7.27,TM,1681763796
29,kristiansund,63.1115,7.732,281.18,70,0,1.54,NO,1681763796
30,ostrovnoy,68.0531,39.5131,266.06,92,98,2.74,RU,1681763796
31,jamestown,42.097,-79.2353,278.44,81,100,6.17,US,1681763648
32,clyde river,70.4692,-68.5914,261.28,67,20,9.26,CA,1681763797
33,thompson,55.7435,-97.8558,273.24,37,0,3.6,CA,1681763797
34,atuona,-9.8,-139.0333,300.68,79,29,8.52,PF,1681763797
35,gryazovets,58.88,40.2525,276.67,82,5,0.8,RU,1681763798
36,lebu,-37.6167,-73.65,285.29,62,39,7.99,CL,1681763798
37,busselton,-33.65,115.3333,285.51,72,0,3.77,AU,1681763798
38,tuktoyaktuk,69.4541,-133.0374,258.15,78,100,7.2,CA,1681763799
39,sao joao da barra,-21.6403,-41.0511,301.2,84,8,5.65,BR,1681763799
40,ponta do sol,32.6667,-17.1,293.5,50,100,1.71,PT,1681763799
41,syracuse,37.0881,15.2792,284.8,73,1,3.18,IT,1681763799
42,ancud,-41.8697,-73.8203,283.51,68,100,3.72,CL,1681763554
43,vao,-22.6667,167.4833,299.45,85,100,3.85,NC,1681763800
44,bjornevatn,69.6672,29.9847,276.34,81,0,5.14,NO,1681763800
45,olafsvik,64.8945,-23.7142,280.62,91,94,9.2,IS,1681763801
46,mananjary,-21.2167,48.3333,295.4,90,100,2.45,MG,1681763801
47,grong,64.4654,12.3149,276.75,92,68,1.33,NO,1681763802
48,albany,42.6001,-73.9662,284.76,87,100,1.18,US,1681763643
49,chokurdakh,70.6333,147.9167,255.38,97,100,1.87,RU,1681763802
50,kaitangata,-46.2817,169.8464,285.47,93,100,1.71,NZ,1681763802
51,punta arenas,-53.15,-70.9167,279.21,81,100,6.69,CL,1681763803
52,pacific grove,36.6177,-121.9166,289.94,66,0,6.69,US,1681763506
53,illintsi,49.1048,29.2177,281.68,61,100,5.16,UA,1681763803
54,iqaluit,63.7506,-68.5145,260.0,65,75,7.72,CA,1681763803
55,davenda,53.5556,119.317,263.89,89,27,2.08,RU,1681763804
56,arraial do cabo,-22.9661,-42.0278,302.13,74,0,4.12,BR,1681763804
57,new norfolk,-42.7826,147.0587,281.99,79,93,1.42,AU,1681763767
58,bowen,-20.0167,148.2333,298.46,72,100,5.68,AU,1681763804
59,bambanglipuro,-7.95,110.2833,297.82,90,97,1.45,ID,1681763805
60,ilulissat,69.2167,-51.1,271.16,69,75,7.2,GL,1681763805
61,tasiilaq,65.6145,-37.6368,276.24,91,100,9.21,GL,1681763805
62,qaanaaq,77.484,-69.3632,259.56,78,0,1.04,GL,1681763805
63,cape town,-33.9258,18.4232,291.69,85,100,3.58,ZA,1681763365
64,mataura,-46.1927,168.8643,284.53,96,100,0.58,NZ,1681763806
65,hobart,-42.8794,147.3294,282.18,88,75,1.54,AU,1681763721
66,bredasdorp,-34.5322,20.0403,287.73,86,1,1.4,ZA,1681763806
67,poum,-20.2333,164.0167,299.43,80,81,8.94,NC,1681763806
68,souris,49.6172,-100.2612,282.45,37,54,5.06,CA,1681763806
69,badiraguato,25.3667,-107.5167,308.18,10,56,3.46,MX,1681763807
70,almaznyy,48.0448,40.045,280.37,54,100,6.6,RU,1681763807
71,avarua,-21.2078,-159.775,299.18,61,50,5.66,CK,1681763746
72,ulladulla,-35.35,150.4667,281.35,85,0,1.73,AU,1681763808
73,bambous virieux,-20.3428,57.7575,298.29,83,20,3.6,MU,1681763808
74,urbano santos,-3.2078,-43.4036,298.01,93,100,1.26,BR,1681763808
75,san quintin,30.4833,-115.95,289.44,65,59,7.88,MX,1681763808
76,oranjemund,-28.55,16.4333,292.32,47,8,0.37,NA,1681763809
77,turukhansk,65.8167,87.9833,250.98,100,57,2.11,RU,1681763811
78,provideniya,64.3833,-173.3,263.12,92,95,1.71,RU,1681763811
79,makakilo city,21.3469,-158.0858,299.33,65,0,4.12,US,1681763812
80,seoul,37.5683,126.9778,287.93,50,100,2.06,KR,1681763307
81,asau,46.4333,26.4,279.66,93,99,2.07,RO,1681763812
82,saint george,37.1041,-113.5841,300.61,17,0,2.24,US,1681763582
83,kondinskoye,59.6481,67.41,264.18,85,43,2.5,RU,1681763813
84,port alfred,-33.5906,26.891,293.86,57,0,0.67,ZA,1681763813
85,bathsheba,13.2167,-59.5167,301.49,61,20,8.23,BB,1681763813
86,mountain home,43.133,-115.6912,287.12,34,100,3.6,US,1681763814
87,dikson,73.5069,80.5464,252.61,100,100,1.72,RU,1681763639
88,constitucion,-35.3333,-72.4167,287.54,61,3,7.94,CL,1681763773
89,iisalmi,63.5592,27.1907,274.77,84,98,3.88,FI,1681763815
90,porto,41.1496,-8.611,293.73,37,0,3.09,PT,1681763697
91,tezu,27.9167,96.1667,297.46,38,94,1.89,IN,1681763816
92,longyearbyen,78.2186,15.6401,267.06,79,75,15.43,SJ,1681763787
93,vangaindrano,-23.35,47.6,295.66,82,100,1.43,MG,1681763816
94,bocana de paiwas,12.7857,-85.1227,309.19,23,48,4.81,NI,1681763817
95,washougal,45.5826,-122.3534,282.68,82,100,5.66,US,1681763817
96,oriximina,-1.7656,-55.8661,299.39,90,98,1.59,BR,1681763817
97,limon,10.0,-83.0333,302.62,74,75,3.6,CR,1681763817
98,rancho veloz,22.8806,-80.3917,301.03,62,71,9.62,CU,1681763817
99,xaxim,-26.9617,-52.5347,293.36,99,92,0.85,BR,1681763818
100,saint-augustin,51.226,-58.6502,277.06,58,36,3.56,CA,1681763818
101,port elizabeth,-33.918,25.5701,288.88,95,0,2.06,ZA,1681763818
102,talnakh,69.4865,88.3972,258.82,79,32,1.18,RU,1681763592
103,homer,59.6425,-151.5483,276.09,72,100,2.06,US,1681763819
104,narsaq,60.9167,-46.05,281.27,79,99,1.21,GL,1681763819
105,esfarayen,37.0765,57.5101,279.96,54,9,1.28,IR,1681763819
106,chingirlau,51.095,54.0814,277.52,59,18,2.87,KZ,1681763819
107,tanhacu,-14.0214,-41.2481,301.49,54,69,3.64,BR,1681763820
108,henties bay,-22.116,14.2845,292.8,71,52,0.87,NA,1681763820
109,jumla,29.2747,82.1838,283.15,52,4,2.11,NP,1681763820
110,norman wells,65.282,-126.8329,265.17,73,100,8.75,CA,1681763820
111,upernavik,72.7868,-56.1549,258.68,96,84,2.73,GL,1681763820
112,kapaa,22.0752,-159.319,300.14,83,0,2.57,US,1681763688
113,burnie,-41.0667,145.9167,288.12,96,100,0.53,AU,1681763821
114,meulaboh,4.1363,96.1285,299.05,87,44,1.02,ID,1681763821
115,bell ville,-32.6259,-62.6887,294.71,56,33,0.6,AR,1681763822
116,port hardy,50.6996,-127.4199,279.15,93,100,12.35,CA,1681763822
117,sur,22.5667,59.5289,299.91,65,93,1.38,OM,1681763665
118,kushmurun,52.4503,64.6311,273.98,69,53,3.81,KZ,1681763822
119,hermanus,-34.4187,19.2345,288.99,76,0,2.28,ZA,1681763823
120,kahului,20.8947,-156.47,300.84,64,40,4.92,US,1681763598
121,tongliao,43.6125,122.2653,282.21,49,79,4.25,CN,1681763823
122,najran,17.4924,44.1277,297.51,37,1,1.58,SA,1681763823
123,sao miguel do araguaia,-13.275,-50.1628,301.11,69,53,0.84,BR,1681763823
124,kachug,53.9606,105.8817,269.55,68,100,1.86,RU,1681763824
125,waipawa,-41.4122,175.5153,285.57,78,95,2.47,NZ,1681763824
126,cockburn town,21.4612,-71.1419,298.75,71,0,7.51,TC,1681763825
127,dindori,22.95,81.0833,299.97,20,2,0.48,IN,1681763825
128,mahebourg,-20.4081,57.7,298.31,83,20,3.6,MU,1681763825
129,bollnas,61.3482,16.3946,274.66,98,33,1.61,SE,1681763826
130,nantucket,41.2835,-70.0995,286.23,100,100,5.66,US,1681763682
131,ketchikan,55.3422,-131.6461,281.41,49,40,0.0,US,1681763826
132,yugorsk,61.3133,63.3319,262.44,98,73,2.07,RU,1681763826
133,porto novo,6.4965,2.6036,302.05,78,100,3.71,BJ,1681763562
134,isla vista,34.4133,-119.861,294.21,72,75,4.12,US,1681763827
135,yenagoa,4.9247,6.2642,299.59,83,99,1.54,NG,1681763827
136,castro,-24.7911,-50.0119,291.53,99,100,0.92,BR,1681763827
137,asmara,15.3333,38.9333,290.24,69,15,1.44,ER,1681763828
138,kulhudhuffushi,6.6221,73.07,301.39,72,2,0.98,MV,1681763828
139,kruisfontein,-34.0033,24.7314,287.89,71,0,1.26,ZA,1681763828
140,teya,60.3778,92.6267,268.08,88,100,4.5,RU,1681763828
141,orlik,52.5178,99.825,270.3,91,100,2.57,RU,1681763829
142,saldanha,-33.0117,17.9442,288.18,87,0,4.99,ZA,1681763829
143,mar del plata,-38.0023,-57.5575,291.53,65,75,4.12,AR,1681763830
144,kavieng,-2.5744,150.7967,300.94,74,34,1.59,PG,1681763830
145,munkebo,55.4618,10.5558,280.05,77,9,1.55,DK,1681763830
146,dorokhovo,55.5506,36.3744,280.27,79,100,1.51,RU,1681763831
147,flin flon,54.7682,-101.865,280.06,36,20,3.6,CA,1681763831
148,nikolskoye,59.7035,30.7861,276.09,83,68,1.76,RU,1681763831
149,ribeira grande,38.5167,-28.7,288.37,63,20,5.14,PT,1681763766
150,mirante do paranapanema,-22.2919,-51.9064,296.69,89,28,2.72,BR,1681763832
151,san patricio,28.017,-97.5169,299.92,48,73,8.13,US,1681763833
152,sept-iles,50.2001,-66.3821,276.51,81,100,6.17,CA,1681763685
153,bluff,-46.6,168.3333,284.71,88,100,5.26,NZ,1681763834
154,atasu,48.6814,71.6433,270.4,70,2,2.63,KZ,1681763834
155,gagret,31.6667,76.0667,298.72,18,100,2.64,IN,1681763835
156,vaini,-21.2,-175.2,296.24,100,100,6.69,TO,1681763835
157,pemberton,50.3164,-122.8027,280.98,66,100,1.6,CA,1681763836
158,buala,-8.145,159.5921,299.74,72,73,2.17,SB,1681763836
159,tautira,-17.7333,-149.15,300.75,77,100,3.94,PF,1681763836
160,xalpatlahuac,17.4667,-98.6167,299.2,30,48,2.97,MX,1681763836
161,codrington,-38.2667,141.9667,286.84,82,53,5.8,AU,1681763837
162,hambantota,6.1241,81.1185,299.97,78,6,0.18,LK,1681763837
163,rawson,-43.3002,-65.1023,288.24,35,39,5.96,AR,1681763837
164,avera,33.194,-82.5271,295.18,35,0,5.95,US,1681763838
165,faanui,-16.4833,-151.75,301.06,73,67,4.13,PF,1681763838
166,touho,-20.7833,165.2333,298.43,87,94,3.27,NC,1681763838
167,hervey bay,-25.2986,152.8535,296.28,72,2,9.72,AU,1681763838
168,hovd,48.0056,91.6419,281.34,31,0,10.91,MN,1681763839
169,izhma,65.0083,53.9113,271.79,96,100,1.45,RU,1681763839
170,straseni,47.1414,28.6103,283.11,63,99,2.12,MD,1681763839
171,da lat,11.9465,108.4419,288.51,96,100,0.34,VN,1681763840
172,vardo,70.3705,31.1107,276.14,87,100,7.72,NO,1681763840
173,barrow,71.2906,-156.7887,254.16,71,0,5.66,US,1681763840
174,marawi,7.9986,124.2928,293.48,90,54,1.21,PH,1681763840
175,puerto madero,14.7208,-92.4215,306.26,52,40,4.12,MX,1681763841
176,krasnoarmeysk,51.0239,45.6969,280.09,48,94,2.06,RU,1681763841
177,moranbah,-22.0016,148.0466,294.27,83,100,4.27,AU,1681763841
178,pevek,69.7008,170.3133,262.83,72,3,6.74,RU,1681763841
179,butaritari,3.0707,172.7902,301.38,73,7,3.48,KI,1681763842
180,sambava,-14.2667,50.1667,297.4,89,99,4.23,MG,1681763842
181,nome,64.5011,-165.4064,259.19,78,0,1.54,US,1681763625
182,sussex,41.1834,-74.6663,291.87,47,75,5.14,US,1681763842
183,ambilobe,-13.2,49.05,296.15,94,46,1.52,MG,1681763843
184,halifax,44.6453,-63.5724,286.09,92,100,6.69,CA,1681763843
185,saskylakh,71.9167,114.0833,248.98,100,100,1.77,RU,1681763843
186,evensk,61.95,159.2333,273.97,99,100,6.23,RU,1681763843
187,college,64.8569,-147.8028,270.98,71,100,3.09,US,1681763843
188,les cayes,18.2,-73.75,300.77,67,39,3.42,HT,1681763844
189,whitehorse,60.7161,-135.0538,274.32,93,100,2.57,CA,1681763844
190,tenenkou,14.4572,-4.9169,305.67,7,3,3.59,ML,1681763844
191,klaksvik,62.2266,-6.589,283.66,98,100,7.01,FO,1681763844
192,cape canaveral,28.4058,-80.6048,296.47,67,100,7.2,US,1681763845
193,samarai,-10.6167,150.6667,300.04,73,97,1.75,PG,1681763845
194,kodiak,57.79,-152.4072,273.88,40,0,9.26,US,1681763845
195,del rio,29.3627,-100.8968,302.21,31,0,9.26,US,1681763845
196,loa janan,-0.583,117.095,296.06,99,100,0.92,ID,1681763845
197,praia da vitoria,38.7333,-27.0667,289.29,72,20,4.57,PT,1681763846
198,maniitsoq,65.4167,-52.9,271.67,76,20,8.63,GL,1681763846
199,planeta rica,8.4147,-75.5883,303.75,59,100,4.41,CO,1681763846
200,joshimath,30.5667,79.5667,286.69,54,28,3.02,IN,1681763846
201,umm lajj,25.0213,37.2685,299.45,34,0,3.22,SA,1681763847
202,abbeville,50.1,1.8333,282.87,94,80,4.18,FR,1681763847
203,east london,-33.0153,27.9116,295.08,38,0,2.1,ZA,1681763847
204,san lorenzo,-25.3333,-57.5333,296.67,83,75,3.09,PY,1681763603
205,wad rawah,15.1603,33.1397,304.21,9,99,4.69,SD,1681763847
206,zhangdian,34.2,119.3,292.4,81,100,1.73,CN,1681763848
207,belaya gora,68.5333,146.4167,264.87,94,100,2.22,RU,1681763848
208,nanortalik,60.1432,-45.2371,273.04,90,100,3.56,GL,1681763848
209,naliya,23.2667,68.8333,299.1,81,1,3.31,IN,1681763849
210,hangu,39.2489,117.7892,284.17,69,0,2.98,CN,1681763849
211,khani,41.9563,42.9566,282.91,85,100,2.63,GE,1681763849
212,inongo,-1.95,18.2667,296.79,83,100,1.81,CD,1681763849
213,tucuman,-26.8241,-65.2226,292.15,82,100,3.6,AR,1681763850
214,mulki,13.1,74.8,299.26,82,0,1.7,IN,1681763850
215,camana,-16.6228,-72.7111,295.88,77,21,3.86,PE,1681763850
216,miri,4.4148,114.0089,298.23,94,20,0.0,MY,1681763850
217,santa cruz de tenerife,28.4682,-16.2546,293.03,86,75,10.8,ES,1681763676
218,mayna,54.1135,47.6231,279.84,49,100,3.04,RU,1681763851
219,aquidauana,-20.4711,-55.7872,299.17,86,19,2.12,BR,1681763851
220,aguimes,27.9054,-15.4461,292.5,60,75,3.6,ES,1681763851
221,nyurba,63.2842,118.3319,260.74,91,100,3.74,RU,1681763851
222,mount gambier,-37.8333,140.7667,286.83,83,63,4.1,AU,1681763816
223,kaeo,-35.1,173.7833,293.33,90,99,6.5,NZ,1681763852
224,alyangula,-13.8483,136.4192,298.79,63,100,5.81,AU,1681763852
225,samalkha,29.2333,77.0167,303.74,21,42,1.61,IN,1681763852
226,iznik,40.4286,29.7211,286.01,94,90,1.57,TR,1681763852
227,mount isa,-20.7333,139.5,290.02,55,2,4.63,AU,1681763853
228,westport,41.1415,-73.3579,292.75,86,100,0.45,US,1681763853
229,kirakira,-10.4544,161.9205,299.97,76,78,2.47,SB,1681763853
230,sechura,-5.5569,-80.8222,302.18,65,96,3.97,PE,1681763854
231,mareeba,-17.0,145.4333,294.55,94,100,1.02,AU,1681763854
232,pullman,46.7313,-117.1796,282.51,59,40,4.47,US,1681763854
233,sao borja,-28.6606,-56.0044,295.9,50,48,4.32,BR,1681763854
234,leningradskiy,69.3833,178.4167,259.75,78,2,2.99,RU,1681763854
235,arman,59.7,150.1667,268.26,78,98,4.37,RU,1681763854
236,russell,32.3502,-85.1999,296.69,21,0,6.17,US,1681763855
237,itoman,26.1247,127.6694,295.58,83,20,5.14,JP,1681763855
238,pangnirtung,66.1451,-65.7125,259.15,85,0,2.57,CA,1681763855
239,rabo de peixe,37.8,-25.5833,287.88,77,40,3.6,PT,1681763856
240,bengkulu,-3.8004,102.2655,297.61,88,95,1.81,ID,1681763802
241,palora,-1.7,-77.9333,298.21,77,98,1.88,EC,1681763857
242,sampit,-2.5333,112.95,296.55,97,100,0.31,ID,1681763858
243,carnarvon,-24.8667,113.6333,294.36,40,38,5.82,AU,1681763859
244,vilhena,-12.7406,-60.1458,297.27,94,75,3.09,BR,1681763859
245,pozo colorado,-23.4923,-58.7972,294.48,98,100,2.06,PY,1681763859
246,ahuimanu,21.4447,-157.8378,299.99,72,40,4.12,US,1681763860
247,gao,16.6362,1.637,302.69,6,1,4.4,ML,1681763860
248,belyy yar,53.6039,91.3903,271.09,64,0,5.0,RU,1681763860
249,estevan,49.1334,-102.9842,286.34,37,20,10.8,CA,1681763651
250,sorland,67.667,12.6934,279.07,86,90,5.29,NO,1681763861
251,severo-kurilsk,50.6789,156.125,273.86,99,100,4.45,RU,1681763861
252,lompoc,34.6391,-120.4579,292.47,70,40,12.52,US,1681763861
253,bang saphan,11.2126,99.5117,298.44,88,65,1.52,TH,1681763862
254,madison,34.7334,-86.5667,293.83,22,0,7.72,US,1681763697
255,gamba,-2.65,10.0,299.45,88,85,2.16,GA,1681763597
256,saint-pierre,-21.3393,55.4781,297.97,73,0,3.6,RE,1681763822
257,namatanai,-3.6667,152.4333,299.73,77,45,1.76,PG,1681763862
258,saint-francois,46.4154,3.9054,281.3,92,100,1.03,FR,1681763862
259,kralendijk,12.15,-68.2667,302.14,65,75,6.69,BQ,1681763863
260,achacachi,-16.05,-68.6833,285.75,61,25,3.29,BO,1681763863
261,ojinaga,29.5667,-104.4167,305.13,30,0,0.0,MX,1681763863
262,alice springs,-23.7,133.8833,280.9,93,48,0.0,AU,1681763863
263,dahuk,36.8695,42.994,288.64,54,7,1.8,IQ,1681763864
264,qaqortoq,60.7167,-46.0333,273.48,82,97,2.01,GL,1681763864
265,lavrentiya,65.5833,-171.0,259.1,90,66,1.99,RU,1681763864
266,the valley,18.217,-63.0578,300.43,78,40,3.6,AI,1681763819
267,hami,42.8,93.45,291.68,26,30,2.66,CN,1681763864
268,san joaquin,37.9333,-121.3011,289.88,50,0,3.6,US,1681763865
269,bonavista,48.6499,-53.1147,272.49,86,9,2.57,CA,1681763865
270,axim,4.8699,-2.2405,300.35,85,24,2.16,GH,1681763865
271,tonj,7.2737,28.6822,300.09,60,100,2.99,SS,1681763866
272,galle,6.0367,80.217,300.1,75,14,0.93,LK,1681763867
273,danshui,22.7984,114.4672,296.29,94,29,1.84,CN,1681763867
274,ziro,27.6333,93.8333,285.17,81,68,1.33,IN,1681763867
275,hofn,64.2539,-15.2082,281.1,96,99,4.69,IS,1681763867
276,taoudenni,22.6783,-3.9836,304.58,12,0,4.47,ML,1681763867
277,alta floresta,-9.8756,-56.0861,306.05,62,40,3.09,BR,1681763868
278,denpasar,-8.65,115.2167,297.99,88,20,1.54,ID,1681763710
279,nova olimpia,-14.7972,-57.2881,301.43,79,76,0.5,BR,1681763690
280,fort-shevchenko,44.5086,50.263,282.86,57,100,4.74,KZ,1681763868
281,ulaanbaatar,47.9077,106.8832,275.22,32,0,10.0,MN,1681763868
282,sao paulo de olivenca,-3.3783,-68.8725,298.23,84,97,0.5,BR,1681763869
283,batemans bay,-35.7167,150.1833,284.32,88,1,1.81,AU,1681763705
284,te anau,-45.4167,167.7167,285.43,96,100,0.72,NZ,1681763869
285,torbay,47.6666,-52.7314,276.64,73,20,4.12,CA,1681763870
286,guerrero negro,27.9769,-114.0611,290.83,60,47,8.78,MX,1681763870
287,sedro-woolley,48.5039,-122.2361,286.55,44,40,5.14,US,1681763870
288,zhanakorgan,43.9098,67.2495,278.43,45,0,2.66,KZ,1681763870
289,tarko-sale,64.9225,77.785,252.26,99,93,2.43,RU,1681763870
290,darnah,32.767,22.6367,289.0,78,6,6.73,LY,1681763871
291,kastrakion,39.7156,21.6181,282.83,82,13,1.48,GR,1681763871
292,paveh,35.0434,46.3565,284.39,58,0,1.76,IR,1681763871
293,dargaville,-35.9333,173.8833,292.31,81,96,5.28,NZ,1681763871
294,ogaminana,7.5946,6.2248,302.08,61,100,2.92,NG,1681763872
295,acapulco,16.8634,-99.8901,305.05,58,0,3.6,MX,1681763640
296,timbiqui,2.7717,-77.6654,300.51,75,84,1.91,CO,1681763872
297,pisco,-13.7,-76.2167,299.18,65,0,5.66,PE,1681763872
298,bizhbulyak,53.6967,54.2642,278.84,58,82,2.15,RU,1681763872
299,roald,62.5833,6.1333,282.46,71,0,3.6,NO,1681763873
300,port-gentil,-0.7193,8.7815,300.13,89,20,1.03,GA,1681763873
301,kasongo,-4.45,26.6667,292.97,98,95,0.47,CD,1681763873
302,saint anthony,45.0205,-93.218,281.18,45,0,9.77,US,1681763873
303,senanga,-16.1167,23.2667,292.24,65,59,1.57,ZM,1681763874
304,dali,25.7,100.1833,286.4,59,0,2.47,CN,1681763874
305,kutum,14.2,24.6667,298.83,14,32,3.56,SD,1681763874
306,sterling,39.0062,-77.4286,292.86,37,75,6.69,US,1681763645
307,mackay,-21.15,149.2,296.31,77,94,4.92,AU,1681763875
308,mopipi,-21.1833,24.8833,294.05,34,4,3.65,BW,1681763875
309,la paz,-16.5,-68.15,292.14,22,40,4.63,BO,1681763703
310,colquechaca,-18.6667,-66.0167,283.33,23,8,5.69,BO,1681763875
311,leeuwarden,53.2014,5.8086,282.58,84,3,5.14,NL,1681763876
312,itarema,-2.9248,-39.9167,299.33,86,86,4.09,BR,1681763749
313,gambela,8.25,34.5833,297.77,80,100,0.25,ET,1681763876
314,maragogi,-9.0122,-35.2225,299.52,83,62,2.96,BR,1681763783
315,nizhnyaya poyma,56.1622,97.1933,273.55,84,100,8.38,RU,1681763877
316,elmira,42.0898,-76.8077,287.78,55,75,5.66,US,1681763877
317,sayyan,15.1718,44.3244,290.45,45,28,1.28,YE,1681763877
318,bundaberg,-24.85,152.35,295.48,70,1,6.51,AU,1681763878
319,gritsovskiy,54.1376,38.1604,281.51,46,100,2.37,RU,1681763878
320,spring valley,36.108,-115.245,302.47,10,20,9.26,US,1681763878
321,sinnamary,5.3833,-52.95,298.53,89,100,5.59,GF,1681763879
322,belmonte,-15.8631,-38.8828,298.94,74,18,2.84,BR,1681763879
323,barcelos,41.5388,-8.6151,294.09,70,83,2.1,PT,1681763787
324,vung tau,10.346,107.0843,300.19,85,74,3.74,VN,1681763882
325,puerto del rosario,28.5004,-13.8627,293.01,73,20,8.75,ES,1681763883
326,great yarmouth,52.6083,1.7305,281.21,94,6,4.82,GB,1681763883
327,cayenne,4.9333,-52.3333,297.17,100,75,2.57,GF,1681763884
328,raudeberg,61.9875,5.1352,279.52,75,82,1.35,NO,1681763884
329,lewiston,44.1003,-70.2148,283.34,97,100,4.12,US,1681763885
330,fairlie,55.756,-4.8556,287.16,86,94,2.74,GB,1681763885
331,port hedland,-20.3167,118.5667,291.18,52,22,4.12,AU,1681763885
332,victoria,22.2855,114.1577,299.44,87,6,2.24,HK,1681763885
333,nanhai,30.1282,111.7784,293.65,97,76,2.26,CN,1681763886
334,atkinson,42.8384,-71.147,284.17,95,100,3.6,US,1681763886
335,stratonion,40.5141,23.8247,284.69,87,26,2.11,GR,1681763886
336,svetlaya,46.5389,138.3297,274.64,73,8,1.19,RU,1681763886
337,berdigestyakh,62.0989,126.6992,265.63,95,100,3.56,RU,1681763590
338,conde,-7.2597,-34.9075,301.85,74,20,3.6,BR,1681763887
339,sao filipe,14.8961,-24.4956,297.07,78,12,4.68,CV,1681763887
340,katsuura,35.1333,140.3,288.22,72,90,6.07,JP,1681763887
341,yulara,-25.2406,130.9889,287.18,47,71,3.21,AU,1681763888
342,nadym,65.5333,72.5167,262.24,95,100,4.21,RU,1681763888
343,coquimbo,-29.9533,-71.3436,292.0,63,0,5.66,CL,1681763713
344,el vendrell,41.2167,1.5333,289.13,84,17,1.34,ES,1681763794
345,kyra,49.5776,111.9753,266.88,63,19,0.86,RU,1681763889
346,kununurra,-15.7667,128.7333,287.14,94,32,1.54,AU,1681763772
347,wajid,3.8093,43.2471,298.56,77,59,5.16,SO,1681763889
348,amuntai,-2.4177,115.2494,295.84,99,100,1.13,ID,1681763890
349,west lafayette,40.4259,-86.9081,279.03,72,100,7.72,US,1681763714
350,adrar,20.5022,-10.0711,303.61,20,25,4.49,MR,1681763890
351,myanaung,18.2833,95.3167,300.49,69,0,1.67,MM,1681763890
352,novoagansk,61.9449,76.6625,246.53,100,85,1.87,RU,1681763891
353,soyo,-6.1349,12.3689,298.99,88,100,2.96,AO,1681763891
354,airai,-8.9266,125.4092,288.43,93,85,0.66,TL,1681763892
355,cascais,38.6979,-9.4215,296.79,28,0,6.69,PT,1681763892
356,chuy,-33.6971,-53.4616,288.12,61,4,3.07,UY,1681763892
357,verkh-usugli,52.7,115.1667,265.78,72,24,1.12,RU,1681763892
358,kot radha kishan,31.1725,74.0997,303.21,25,53,2.52,PK,1681763893
359,tigil,57.8,158.6667,274.07,81,100,4.2,RU,1681763893
360,cherskiy,68.75,161.3,266.31,80,83,2.11,RU,1681763894
361,udachnyy,66.4167,112.4,267.73,96,100,4.01,RU,1681763894
362,tura,25.5198,90.2201,299.15,67,2,3.14,IN,1681763894
363,parauna,-16.9478,-50.4486,298.7,69,83,1.17,BR,1681763894
364,lorengau,-2.0226,147.2712,300.3,79,87,1.48,PG,1681763895
365,maldonado,-34.6667,-54.9167,290.5,59,7,2.18,UY,1681763895
366,mukhen,48.1,136.1,274.32,61,44,1.89,RU,1681763895
367,cidreira,-30.1811,-50.2056,293.51,73,61,6.65,BR,1681763895
368,saiki,32.95,131.9,286.03,88,8,3.89,JP,1681763896
369,xining,36.6167,101.7667,282.41,41,39,1.8,CN,1681763896
370,singaraja,-8.112,115.0882,298.56,83,65,1.5,ID,1681763896
371,korla,41.7597,86.1469,291.12,30,32,6.39,CN,1681763896
372,san andres,12.5847,-81.7006,302.16,65,20,4.12,CO,1681763897
373,ayan,56.45,138.1667,265.59,91,79,1.23,RU,1681763897
374,morant bay,17.8815,-76.4093,303.54,73,13,2.57,JM,1681763897
375,tahta,26.7693,31.5021,299.5,11,0,2.33,EG,1681763898
376,baraki barak,33.9675,68.9486,285.3,69,100,0.57,AF,1681763898
377,wamba,8.9333,8.6,304.7,40,100,0.51,NG,1681763898
378,banjar,-8.19,114.9675,297.23,89,63,1.58,ID,1681763899
379,coronel vivida,-25.9797,-52.5678,291.83,99,94,1.04,BR,1681763790
380,alcantara,-2.4089,-44.4147,302.26,85,98,3.08,BR,1681763899
381,ayame,5.6083,-3.1563,297.65,93,53,1.1,CI,1681763899
382,kibakwe,-6.7167,36.3667,289.93,96,46,1.63,TZ,1681763900
383,lac du bonnet,50.2536,-96.0612,280.65,29,0,4.11,CA,1681763900
384,portmore,17.9702,-76.8672,303.73,68,20,4.63,JM,1681763900
385,tingi,-11.3,35.0333,290.1,96,65,1.79,TZ,1681763900
386,beloha,-25.1667,45.05,293.98,75,0,5.1,MG,1681763901
387,zhezkazgan,47.8043,67.7144,272.22,66,0,2.74,KZ,1681763901
388,goderich,43.7501,-81.7165,278.66,81,100,6.69,CA,1681763901
389,yaan,7.3833,8.5667,303.81,51,96,4.21,NG,1681763902
390,chagoda,59.164,35.3285,276.29,84,73,1.5,RU,1681763902
391,punta cardon,11.6581,-70.215,300.93,63,42,9.63,VE,1681763902
392,elban,50.1018,136.5094,273.43,72,27,2.08,RU,1681763904
393,muros,42.7762,-9.0603,289.73,72,13,3.63,ES,1681763904
394,stornoway,58.2093,-6.3865,284.78,88,24,1.54,GB,1681763904
395,georgetown,5.4112,100.3354,302.11,89,20,1.03,MY,1681763843
396,mirabad,30.4362,61.8383,285.74,53,68,11.68,AF,1681763905
397,yabrud,33.9674,36.6574,288.7,48,53,0.64,SY,1681763906
398,bethel,41.3712,-73.414,290.85,77,100,4.12,US,1681763906
399,pasni,25.2631,63.471,299.03,75,95,3.53,PK,1681763906
400,tomatlan,19.9333,-105.25,304.78,38,0,4.04,MX,1681763906
401,nouadhibou,20.931,-17.0347,294.14,73,45,5.14,MR,1681763907
402,mezen,65.8522,44.24,269.84,98,100,1.18,RU,1681763907
403,parys,48.8534,2.3488,284.86,82,75,5.66,FR,1681763620
404,alexandria,31.2156,29.9553,293.45,64,0,4.08,EG,1681763907
405,aykhal,66.0,111.5,265.38,96,100,2.49,RU,1681763908
406,bismarck,46.8083,-100.7837,285.06,39,0,8.75,US,1681763908
407,altay,47.8667,88.1167,276.83,78,100,1.32,CN,1681763908
408,san angelo,31.4638,-100.437,299.32,18,0,7.72,US,1681763908
409,port blair,11.6667,92.75,300.57,78,39,1.39,IN,1681763828
410,berlevag,70.8578,29.0864,277.15,87,75,6.17,NO,1681763909
411,ibotirama,-12.1853,-43.2206,303.65,37,34,1.64,BR,1681763741
412,launceston,-41.45,147.1667,286.95,91,100,4.63,AU,1681763909
413,serravalle pistoiese,43.9061,10.8327,286.9,59,99,0.45,IT,1681763909
414,luderitz,-26.6481,15.1594,294.78,43,22,1.26,NA,1681763910
415,srednekolymsk,67.45,153.6833,266.98,93,81,1.16,RU,1681763910
416,port-cartier,50.0334,-66.8654,276.34,88,100,7.88,CA,1681763910
417,portree,57.4129,-6.1942,285.66,83,57,0.59,GB,1681763910
418,oum hadjer,13.2954,19.6966,307.51,15,10,3.51,TD,1681763911
419,bandarbeyla,9.4942,50.8122,300.62,72,3,3.48,SO,1681763911
420,grindavik,63.8424,-22.4338,283.12,87,75,11.32,IS,1681763911
421,arinos,-15.9169,-46.1056,301.61,50,65,0.65,BR,1681763911
422,pamekasan,-7.1568,113.4746,298.94,87,40,2.24,ID,1681763912
423,maceio,-9.6658,-35.7353,300.84,78,20,4.63,BR,1681763615
424,isangel,-19.55,169.2667,300.89,83,90,7.21,VU,1681763912
425,san clemente,33.427,-117.612,290.09,86,9,1.34,US,1681763624
426,ballina,-28.8667,153.5667,289.7,67,82,5.56,AU,1681763913
427,manta,-0.95,-80.7333,301.03,74,75,4.12,EC,1681763913
428,kangaatsiaq,68.3065,-53.4641,267.88,83,100,7.0,GL,1681763913
429,port augusta,-32.5,137.7667,287.61,55,0,0.37,AU,1681763914
430,tiznit,29.5833,-9.5,292.0,65,9,2.01,MA,1681763914
431,necochea,-38.5473,-58.7368,287.49,75,99,3.11,AR,1681763914
432,husavik,66.0449,-17.3389,279.72,78,2,7.11,IS,1681763915
433,gat,31.61,34.7642,297.82,62,2,1.19,IL,1681763915
434,kalabo,-14.97,22.6814,291.62,77,59,2.21,ZM,1681763915
435,la rioja,42.25,-2.5,280.03,85,0,1.83,ES,1681763795
436,mnogovershinnyy,53.9353,139.9242,266.26,90,30,1.55,RU,1681763915
437,yumen,40.2833,97.2,285.03,35,0,1.63,CN,1681763916
438,diego de almagro,-26.3667,-70.05,294.49,30,13,3.94,CL,1681763916
439,tiarei,-17.5333,-149.3333,302.16,76,93,3.81,PF,1681763916
440,aksu,41.1231,80.2644,292.6,25,100,2.82,CN,1681763916
441,byron bay,-28.65,153.6167,289.66,69,97,5.78,AU,1681763635
442,lazaro cardenas,17.9583,-102.2,302.56,57,0,4.29,MX,1681763917
443,promyshlennaya,54.9159,85.6385,261.68,73,67,5.52,RU,1681763917
444,orocue,4.7912,-71.3354,303.24,57,99,2.11,CO,1681763917
445,tara,56.8944,74.371,263.24,70,100,4.15,RU,1681763917
446,lasa,46.6166,10.7002,281.13,92,83,1.7,IT,1681763917
447,tezze sul brenta,45.6866,11.7036,287.27,72,55,2.01,IT,1681763918
448,saint-louis,16.3333,-15.0,307.15,24,100,8.03,SN,1681763918
449,coihaique,-45.5752,-72.0662,281.49,61,75,5.14,CL,1681763918
450,inhambane,-23.865,35.3833,294.46,80,15,2.73,MZ,1681763918
451,regina,50.4501,-104.6178,286.14,37,100,11.83,CA,1681763856
452,mayumba,-3.432,10.6554,299.62,89,82,2.15,GA,1681763919
453,katangli,51.7102,143.2326,267.82,92,59,3.92,RU,1681763919
454,taicheng,38.731,113.228,284.71,33,41,2.32,CN,1681763919
455,kiunga,-6.1219,141.2906,295.22,99,100,1.53,PG,1681763920
456,changli,39.7042,119.1506,281.0,78,0,1.68,CN,1681763920
457,alekseyevsk,57.8406,108.3492,261.42,96,76,0.99,RU,1681763920
458,luchenza,-16.0069,35.3095,291.05,97,100,3.31,MW,1681763920
459,kavaratti,10.5669,72.642,301.89,76,6,2.41,IN,1681763921
460,zeya,53.75,127.2667,273.91,94,100,1.96,RU,1681763921
461,inirida,3.8653,-67.9239,301.07,84,94,0.7,CO,1681763921
462,chadiza,-14.0678,32.4392,288.03,98,92,1.62,ZM,1681763921
463,da nang,16.0678,108.2208,299.14,94,20,1.54,VN,1681763922
464,san cristobal,7.7669,-72.225,294.25,67,89,0.79,VE,1681763922
465,fortuna,40.5982,-124.1573,284.21,70,100,0.45,US,1681763922
466,toyooka,35.5333,134.8333,281.47,84,74,2.43,JP,1681763922
467,sobradinho,-12.8333,-39.1,298.07,83,53,2.79,BR,1681763923
468,fukue,32.6881,128.8419,290.56,75,6,9.53,JP,1681763923
469,rocha,-34.4833,-54.3333,286.33,63,3,2.36,UY,1681763923
470,muzaffarpur,26.1167,85.4,302.53,15,0,3.74,IN,1681763727
471,langham,52.3668,-106.9679,287.06,35,57,4.89,CA,1681763924
472,felanitx,39.4696,3.1483,286.62,78,37,2.3,ES,1681763924
473,mangai,-4.05,19.5333,294.14,92,84,1.1,CD,1681763925
474,ewa beach,21.3156,-158.0072,300.12,65,0,4.12,US,1681763926
475,roros,62.5747,11.3842,271.06,86,65,0.0,NO,1681763926
476,makinsk,52.6292,70.4169,268.28,44,3,4.32,KZ,1681763927
477,bubaque,11.2833,-15.8333,299.48,79,93,9.13,GW,1681763927
478,opuwo,-18.0607,13.84,295.74,43,96,2.28,NA,1681763927
479,ixtapa,20.7,-105.2,299.72,69,0,5.66,MX,1681763929
480,walvis bay,-22.9575,14.5053,295.12,57,16,1.97,NA,1681763930
481,baykit,61.67,96.37,262.11,91,100,1.97,RU,1681763930
482,birjand,32.8663,59.2211,283.41,50,0,7.2,IR,1681763703
483,kailua,21.4022,-157.7394,300.14,74,95,2.68,US,1681763704
484,antalaha,-14.9003,50.2788,296.52,90,55,2.85,MG,1681763815
485,tayu,-6.5397,111.0518,298.1,91,100,2.81,ID,1681763932
486,ponta delgada,37.7333,-25.6667,288.55,77,40,3.6,PT,1681763932
487,gizo,-8.103,156.8419,301.21,66,82,3.86,SB,1681763932
488,turochak,52.2576,87.1224,266.83,95,100,2.14,RU,1681763933
489,havre-saint-pierre,50.2334,-63.5986,278.35,70,40,6.17,CA,1681763933
490,zhanaozen,43.3,52.8,281.2,27,48,4.91,KZ,1681763933
491,koslan,63.4564,48.8989,272.5,88,100,2.07,RU,1681763933
492,bako,5.7833,36.5667,291.04,90,96,1.55,ET,1681763934
493,waitati,-45.75,170.5667,286.37,94,100,0.61,NZ,1681763934
494,bumba,2.1833,22.4667,295.03,98,70,1.03,CD,1681763934
495,champerico,14.3,-91.9167,308.45,56,3,5.61,GT,1681763934
496,dingle,10.9995,122.6711,298.14,87,18,2.07,PH,1681763935
497,potosi,-19.5836,-65.7531,287.33,17,4,8.9,BO,1681763709
498,solnechnyy,50.7214,136.6319,272.66,77,27,1.28,RU,1681763935
499,severo-yeniseyskiy,60.3725,93.0408,265.81,90,100,5.02,RU,1681763756
500,adelaide,-34.9333,138.6,289.44,73,0,3.6,AU,1681763706
501,namibe,-15.1961,12.1522,297.68,77,18,2.18,AO,1681763828
502,kieta,-6.2167,155.6333,299.68,70,20,0.9,PG,1681763936
503,lensk,60.7253,114.9278,259.14,97,66,1.18,RU,1681763679
504,half moon bay,37.4636,-122.4286,289.59,62,0,7.72,US,1681763869
505,uribia,11.7139,-72.266,304.71,47,99,3.01,CO,1681763936
506,krasnoselkup,65.7,82.4667,252.19,97,90,2.79,RU,1681763937
507,unai,-16.3575,-46.9061,300.35,56,17,1.65,BR,1681763937
508,praia,14.9215,-23.5087,297.45,73,40,7.2,CV,1681763937
509,itoigawa,37.0333,137.85,281.35,64,100,2.72,JP,1681763937
510,abapo,-18.8333,-63.4667,288.57,98,100,0.86,BO,1681763937
511,laguna,38.421,-121.4238,290.01,54,0,4.63,US,1681763937
512,wanaka,-44.7,169.15,286.54,87,100,0.45,NZ,1681763938
513,mian channun,30.44,72.3543,298.69,44,39,4.71,PK,1681763938
514,sarangani,5.4033,125.4636,301.52,75,20,6.48,PH,1681763938
515,hamilton,39.1834,-84.5333,285.92,54,100,8.23,US,1681763846
516,vostok,46.4856,135.8833,271.43,62,38,1.28,RU,1681763938
517,lisakovsk,52.5369,62.4936,275.59,72,66,3.81,KZ,1681763939
518,kloulklubed,7.0419,134.2556,297.43,76,53,3.45,PW,1681763939
519,monywa,22.1167,95.1333,305.3,36,2,0.35,MM,1681763939
520,port shepstone,-30.7414,30.455,295.02,42,1,3.44,ZA,1681763939
521,dunedin,-45.8742,170.5036,286.37,94,100,1.34,NZ,1681763939
522,mangan,27.5167,88.5333,293.6,43,3,3.69,IN,1681763940
523,gunjur,13.2019,-16.7339,302.19,54,0,2.57,GM,1681763940
524,wajir,1.7471,40.0573,300.65,68,82,3.78,KE,1681763940
525,gwadar,25.1216,62.3254,299.13,75,91,4.09,PK,1681763940
526,alenquer,-1.9417,-54.7383,299.97,85,100,1.2,BR,1681763940
527,corsicana,32.0954,-96.4689,298.96,31,0,6.17,US,1681763941
528,nakhon thai,17.1006,100.8374,300.55,56,1,0.57,TH,1681763941
529,terrace,54.5163,-128.6035,282.1,39,75,4.12,CA,1681763760
530,port moresby,-9.4431,147.1797,295.83,100,20,1.54,PG,1681763941
531,bosobolo,4.1833,19.9,296.07,86,99,0.4,CD,1681763942
532,susanville,40.4163,-120.653,285.32,39,20,8.23,US,1681763942
533,aljezur,37.3191,-8.8033,289.11,61,12,1.55,PT,1681763942
534,saint-joseph,-21.3667,55.6167,297.36,80,100,3.32,RE,1681763943
535,angoche,-16.2325,39.9086,297.74,81,83,3.93,MZ,1681763943
536,warah,27.4481,67.7978,301.71,39,74,4.55,PK,1681763944
537,tutoia,-2.7619,-42.2744,298.93,90,99,2.3,BR,1681763944
538,debre tabor,11.85,38.0167,288.8,56,33,1.02,ET,1681763944
539,manzanillo,20.3433,-77.1167,302.19,63,27,4.73,CU,1681763944
540,manga,11.6636,-1.0731,307.44,26,65,2.27,BF,1681763945
541,sendai,38.2689,140.8719,280.78,71,20,0.84,JP,1681763945
542,bosaso,11.2842,49.1816,301.9,55,0,1.86,SO,1681763945
543,senno,59.5336,33.9167,275.03,75,25,1.07,RU,1681763945
544,rockland,41.1668,-74.0496,292.85,51,39,1.34,US,1681763931
545,san jose,37.3394,-121.895,290.11,51,100,7.2,US,1681763677
546,makokou,0.5738,12.8642,294.36,94,96,1.07,GA,1681763946
547,esfahan,32.6572,51.6776,282.95,28,100,4.42,IR,1681763857
548,sumbe,-11.2061,13.8437,300.06,89,100,3.21,AO,1681763946
549,port keats,-14.25,129.55,292.18,52,100,3.77,AU,1681763947
550,wajima,37.4,136.9,283.19,75,100,2.93,JP,1681763947
551,komsomolskiy,40.4272,71.7189,284.55,62,75,1.03,UZ,1681763948
552,kargala,56.6208,83.9607,260.69,80,69,4.61,RU,1681763948
553,zaigrayevo,51.8336,108.2703,268.71,51,96,1.65,RU,1681763948
554,tabou,4.423,-7.3528,300.51,82,67,1.89,CI,1681763949
555,bilibino,68.0546,166.4372,261.39,88,100,1.49,RU,1681763949
556,aklavik,68.2191,-135.0107,259.15,66,100,6.17,CA,1681763949
557,miandrivazo,-19.5167,45.4667,297.92,80,99,0.37,MG,1681763950
558,talcahuano,-36.7167,-73.1167,287.97,63,20,6.69,CL,1681763950
559,loralai,30.3705,68.598,287.33,79,100,2.89,PK,1681763951
560,tres picos,15.8667,-93.5333,307.27,45,10,3.63,MX,1681763951
561,esperance,-33.8667,121.9,289.68,58,100,6.41,AU,1681763952
562,yarim,14.298,44.3779,287.37,65,1,1.07,YE,1681763952
563,buena vista,43.4203,-83.8986,278.31,84,100,9.26,US,1681763952
564,salalah,17.0151,54.0924,301.2,78,20,2.06,OM,1681763953
565,olinda,-8.0089,-34.8553,301.0,69,20,4.12,BR,1681763953
566,keta,5.9179,0.9879,301.27,79,100,4.65,GH,1681763953
567,sakakah,29.9697,40.2064,296.91,25,0,5.29,SA,1681763954
568,akyab,20.15,92.9,300.27,85,7,0.9,MM,1681763954
569,tuatapere,-46.1333,167.6833,285.55,92,100,1.48,NZ,1681763954
570,lillesand,58.2488,8.3778,281.42,75,0,2.57,NO,1681763954
571,funehiki,37.4333,140.5833,279.12,77,82,1.83,JP,1681763955
572,caceres,39.522,-6.3748,288.66,37,99,2.13,ES,1681763955
573,houma,29.5958,-90.7195,297.05,32,0,1.79,US,1681763955
574,corrales,35.2378,-106.6067,300.03,13,0,4.92,US,1681763749
575,liverpool,53.4106,-2.9779,286.27,82,0,2.06,GB,1681763956
576,okato,-39.2,173.8833,292.14,83,72,5.36,NZ,1681763957
577,chapais,49.7834,-74.8492,282.03,94,100,5.4,CA,1681763957
578,kawalu,-7.3817,108.2082,296.1,98,99,0.34,ID,1681763957
579,aviles,43.5547,-5.9248,285.81,76,0,5.66,ES,1681763959
580,vanavara,60.34,102.2797,257.27,96,90,1.71,RU,1681763960
581,erenhot,43.6475,111.9767,278.57,54,92,3.48,CN,1681763960
582,arlit,18.7369,7.3853,303.18,8,0,4.02,NE,1681763960
